id,title,year,year_end,lat,lon,origin_location,region_group,time_context,mechanism_type,purpose,scale,sensory_mode,accuracy_level,portability,caption,image,thumb,__key
dev_0001,Egyptian Sundial,-1500,,25.6872,32.6396,"Luxor, Egypt",North Africa,Household & ritual,sundial,ritual_religious;calendar_agricultural,monumental,visual,very_low,fixed,"A sundial is a stick that makes a shadow on a marked surface. As the Sun moves, the shadow moves and shows the time during daylight. Priests and workers in ancient Egypt used it to plan rituals and daily tasks. It’s simple: no gears or batteries—just sunlight and the shadow’s position.",images/dev_0001_image.png,images/dev_0001_thumb.png,egyptian sundial
dev_0005,Egyptian Water Clock (Clepsydra),-1400,,25.6872,32.6396,"Thebes, Egypt",North Africa,Household & ritual,water_clepsydra,ritual_religious;legal_judicial,civic,visual;auditory,low,movable,"This water clock was a large bowl with a tiny hole and marks inside. As water dripped out, the falling level showed the hours, even at night. Temple priests used it to time ceremonies and stargazing when the Sun wasn’t visible. It’s one of the first “weather‑proof” clocks in history.",images/dev_0005_image.png,images/dev_0005_thumb.png,egyptian water clock (clepsydra)
dev_2003,Karnak Temple Clepsydra (Temple of Amun),-1450,,25.7188,32.6573,"Karnak, Egypt",North Africa,Household & ritual,water_clepsydra,ritual_religious;calendar_agricultural,civic,visual,low,movable,"This water clock was a large bowl with a tiny hole and marks inside. As water dripped out, the falling level showed the hours, even at night. Temple priests used it to time ceremonies and stargazing when the Sun wasn’t visible. It’s one of the first “weather‑proof” clocks in history.",images/dev_2003_image.png,images/dev_2003_thumb.png,clepsydre du temple d'amon de karnak
dev_2027,Greek Clepsydras (Water Clocks),-400,,37.9755,23.7227,Greece,Europe,Household & ritual,water_clepsydra,ritual_religious;calendar_agricultural,civic,visual,low,movable,"Greek clepsydras were drip‑water timers used in public life. Courts used them to time speeches, and games used them to time events. Engineers like Ctesibius added a steady tank and gears so the flow stayed regular. They turned flowing water into a readable measure of time.",images/dev_2027_image.png,images/dev_2027_thumb.png,clepsydres grecques
dev_2004,Anaphoric Clock,-200,,37.9777,23.7381,Greece,Europe,Scientific & observatory,water_escapement,science_astronomy;civic_admin,civic,visual,low,fixed,An anaphoric clock is a show‑and‑tell sky clock. A patterned plate of the stars turns behind a grid so you can see which constellations rise and the time. Scholars used it to teach and track the heavens. It’s like a mechanical star map that also tells the hour.,images/dev_2004_image.png,images/dev_2004_thumb.png,horloge anaphorique
dev_2032,Archimedes’ Clock,-250,,37.0755,15.2866,"Syracuse, Sicily",Europe,Public & civic,water_mechanical,science_astronomy;civic_admin,civic,visual,low,movable,"This hydraulic clock, linked to Archimedes’ tradition, used water power to move parts and amaze viewers. It likely served learning and courtly entertainment as much as timekeeping. By turning steady flow into motion, it showed how clever mechanics could model time. It’s a bridge between water clocks and later mechanical shows.",images/dev_2032_image.png,images/dev_2032_thumb.png,horloge « d'archimède »
dev_2000,Anticythère,-100,,36.147,23.296,"Antikythera, Greece",Europe,Navigation & maritime,astronomical_computer,science_astronomy;navigation,domestic,visual;tactile,medium,movable,"The Antikythera Mechanism is a hand‑turned bronze computer from ancient Greece. Inside are many gears that predict the Sun, Moon, eclipses, and even festival dates. Scientists and sailors likely used it to plan and learn about the sky. Turn the handle and the pointers show the future dance of the heavens.",images/dev_2000_image.png,images/dev_2000_thumb.png,anticythère
dev_2026,Roman Sundials,-100,,41.90165,12.4787,"Obelisk of Montecitorio (Horologium Augusti), Rome",Europe,Nature-based,sundial,civic_admin,civic,visual,very_low,fixed,"Roman sundials stood in public places to give people a rough idea of the hour. They used the Sun’s shadow like other sundials but were set up around towns and forums. Citizens, officials, and shopkeepers checked them to time meetings and markets. They weren’t very precise, but they kept city life in rhythm.",images/dev_2026_image.png,images/dev_2026_thumb.png,cadrans solaires romains
dev_2024,Tower of the Winds (Andronikos),-50,,37.9755,23.7257,"Athens, Greece",Europe,Public & civic,water_clepsydra;sundial,science_astronomy;civic_admin,monumental,visual,low,fixed,"The Tower of the Winds in Athens was an all‑in‑one weather and time station. Sundials on the walls, a water clock inside, and a wind vane on top told people the hour and the winds. Traders and townsfolk used it near the market to plan their day. It brought science into the street in a way everyone could see.",images/dev_2024_image.png,images/dev_2024_thumb.png,tour des vents (andronikos)
dev_2015,Horologium of Augustus (gnomon),-10,,41.9028,12.4964,"Rome, Italy",Europe,Nature-based,sundial,science_astronomy;civic_admin,monumental,visual,very_low,fixed,"The Horologium of Augustus was a giant obelisk used as a Sun pointer in ancient Rome. Its long shadow fell on lines on the ground to mark noon and the seasons. The city linked public life to the sky and showed the emperor’s power. Think of it as a huge, shared sundial for the capital.",images/dev_2015_image.png,images/dev_2015_thumb.png,horologium augusti (gnomon)
dev_2011,Chinese Fire Clock,500,,35.8617,104.1954,China,East Asia,Household & ritual,fire_clock,domestic,domestic,visual;auditory,very_low,fixed,"A fire clock burns incense or thread to measure time. When the flame reaches a string, a tiny weight drops with a ping to mark an hour. Homes and temples used them for prayers, daily tasks, and medicine schedules. It’s a timer you can smell and hear, not just see.",images/dev_2011_image.png,images/dev_2011_thumb.png,horloge à feu chinoise
dev_2030,Candle Clock (simple),520,,35.8617,104.1954,China,East Asia,Household & ritual,candle_clock,domestic;ritual_religious,domestic,visual;auditory,very_low,movable,"A candle clock is a candle with time marks, sometimes with clever add‑ons. As it burns down, each mark shows time passing, and pins can drop to make a sound. Monks, scholars, and families used them for prayers and nighttime chores. It’s a quiet, dependable way to tell time after dark.",images/dev_2030_image.png,images/dev_2030_thumb.png,horloge à bougie (simple)
dev_2017,Charlemagne’s Clock,807,,50.7753,6.0839,"Aachen, Carolingian Empire",Europe,Public & civic,water_clepsydra,prestige_power;entertainment_automata,monumental,visual;auditory,low,fixed,Charlemagne received a spectacular water‑powered clock as a royal gift. Metal balls fell and figures appeared to mark each hour—more wonder than wristwatch. It showed the skill of craftsmen from the Islamic world and impressed the emperor’s court. This was timekeeping used to display power and friendship between rulers.,images/dev_2017_image.png,images/dev_2017_thumb.png,l'horloge de charlemagne
dev_0013,Japanese Incense Clock,900,,35.0116,135.7681,"Kyoto, Japan",East Asia,Household & ritual,incense_clock,ritual_religious;personal_time,domestic,olfactory;visual,low,portable,"Japanese incense clocks used lines of scented powder that burned at a steady speed. People watched the glowing track or smelled changes to know the time during rituals. Monks and noble families favored them for quiet, night‑time timing. They turned fragrance into a soft, reliable clock.",images/dev_0013_image.png,images/dev_0013_thumb.png,japanese incense clock
dev_2012,Oil Clock,1000,,40.41678,-3.70379,"Madrid, Spain",Middle East,Household & ritual,oil,domestic,domestic,visual,very_low,fixed,"An oil clock is a lamp with a clear reservoir marked like a ruler. As the oil level drops while it burns, the marks show how much time has passed. Households and monasteries used them where sunlight or bells were not enough. It’s an easy, low‑tech way to keep time indoors.",images/dev_2012_image.png,images/dev_2012_thumb.png,horloge à huile
dev_0012,Su Song’s Astronomical Clock Tower,1092,,34.797,114.307,"Kaifeng, China",East Asia,Scientific & observatory,water_escapement,science_astronomy;prestige_power,civic,visual;auditory,medium,fixed,Su Song’s tower in China was a huge water‑powered clock with moving models of the heavens. It used an early escapement to keep steady time and showed both civil hours and sky motions. Court astronomers kept it running to guide the empire’s calendar. It was like a building‑sized planetarium that also told time.,images/dev_0012_image.png,images/dev_0012_thumb.png,su song's astronomical clock tower
dev_2008,Clock of Gaza (Ridwan),1200,,31.506,34.452,"Gaza, Levant",Middle East,Public & civic,water_clepsydra,civic_admin;entertainment_automata,civic,visual;auditory,low,fixed,"The Gaza public clock was a big showpiece that marked hours for the town. Doors opened, lights glowed, and balls dropped with sounds to count day and night. It helped citizens follow prayer times and daily routines. It was part timekeeper, part theater—time you could watch and hear.",images/dev_2008_image.png,images/dev_2008_thumb.png,horloge de gaza (ridwan)
dev_2031,Al-Jazari’s Candle Clock,1206,,35.8617,104.1954,China,East Asia,Household & ritual,fire_clock,domestic;entertainment_automata,domestic,visual;auditory,very_low,movable,"A candle clock is a candle with time marks, sometimes with clever add‑ons. As it burns down, each mark shows time passing, and pins can drop to make a sound. Monks, scholars, and families used them for prayers and nighttime chores. It’s a quiet, dependable way to tell time after dark.",images/dev_2031_image.png,images/dev_2031_thumb.png,horloge à bougie d'al-jazari
dev_2009,Mechanical Tower Clock with Foliot,1300,,51.06517,-1.79805,"Salisbury Cathedral, England",Europe,Public & civic,weight_foliot,civic_admin,civic,visual;auditory,low,fixed,"Early tower clocks used a seesaw bar called a foliot to tick in steps. They had no hands—just bells to ring the hours for towns and churches. People heard time instead of seeing it on a dial. These machines made time public, even if they weren’t very precise.",images/dev_2009_image.png,images/dev_2009_thumb.png,horloge mécanique à foliot (tour)
dev_2029,Hourglass,1300,,43.31833,11.33139,"Palazzo Pubblico (Siena), Italy",Europe,Household & ritual,sand_hourglass,navigation;domestic,personal,visual,low,portable,"An hourglass has two glass bulbs with sand flowing through a tiny opening. When the top empties, a set amount of time has passed. Sailors, cooks, and teachers used them to measure turns, chores, or lessons. They’re sturdy, portable, and don’t mind waves or weather.",images/dev_2029_image.png,images/dev_2029_thumb.png,sablier
dev_2018,Public Clock of Fez,1357,,34.0331,-5.0003,"Fez, Morocco",North Africa,Public & civic,astronomical_gear,civic_admin;science_astronomy,civic,visual;auditory,low,fixed,"Fez had a famous public clock at the Bou Inania madrasa. Balls fell into bowls and doors opened to show the passing hours, with lights for night time. It guided prayers, trade, and city life for everyone nearby. It joined sound, movement, and light to make time easy to follow.",images/dev_2018_image.png,images/dev_2018_thumb.png,l'horloge publique de fès
dev_2001,Astrarium of Giovanni Dondi,1364,,45.4064,11.8768,"Padua, Italy",Europe,Scientific & observatory,astronomical_gear,science_astronomy;prestige_power,domestic,visual,low,movable,"Dondi’s Astrarium is a mechanical model of the sky. Wheels and dials show the paths of planets, the Sun, and the Moon along with the time. Scholars used it to study the heavens and teach astronomy. It’s like a handmade planetarium that also keeps time.",images/dev_2001_image.png,images/dev_2001_thumb.png,astrarium de giovanni dondi
dev_0010,Prague Astronomical Clock (Orloj),1410,,50.087,14.42,"Prague, Czechia",Europe,Public & civic,weight_foliot,civic_admin;entertainment_automata;science_astronomy,civic,visual;auditory,medium,fixed,"Prague’s Astronomical Clock is a city‑center time show. It shows the hour, the Sun and Moon’s paths, and a calendar, with little figures that move every hour. Citizens and travelers gather to watch and check the time. It mixes science, art, and theater on a tower wall.",images/dev_0010_image.png,images/dev_0010_thumb.png,prague astronomical clock (orloj)
dev_2025,Portable Sundials,1500,,49.45387,11.0773,"Nuremberg, Germany",Europe,Personal & wearable,sundial,personal_time,personal,visual,low,portable,Portable sundials were pocket tools for telling time outdoors. You pointed them north with a tiny compass and read the shadow on a small dial. Travelers and villagers used them when church bells or town clocks were far away. They made personal timekeeping cheaper and easier before watches were common.,images/dev_2025_image.png,images/dev_2025_thumb.png,cadrans solaires portables
dev_2016,Jost Bürgi’s Rotating Sphere,1600,,51.3127,9.4797,"Kassel/Prague, Holy Roman Empire",Europe,Scientific & observatory,planetary_sphere,science_astronomy;prestige_power,domestic,visual,medium,movable,"Jost Bürgi built precision clocks and a spinning celestial sphere for princes and scientists. His improved mechanisms could even show seconds, which was rare then. Astronomers used this accuracy for star work and calendars. He helped turn clockmaking into true scientific instruments.",images/dev_2016_image.png,images/dev_2016_thumb.png,la sphère tournante de jost bürgi
dev_2007,Galileo’s Clock,1641,,41.8719,12.5674,Italy,Europe,Scientific & observatory,pendulum,science_astronomy,domestic,visual,medium,movable,"Near the end of his life, Galileo drew plans to improve clock mechanisms. His ideas inspired later designs that led to the anchor escapement. The goal was a smoother, steadier tick for better science and navigation. Even unfinished, his vision pushed clockmaking forward.",images/dev_2007_image.png,images/dev_2007_thumb.png,horloge de galilée
dev_2014,Huygens’ Pendulum Clocks,1656,,52.0705,4.3007,Netherlands,Europe,Public & civic,pendulum,science_astronomy;civic_admin,civic,visual;auditory,high,movable,"Huygens added the swinging pendulum to clocks to make them much more accurate. A steady swing controls the gears so each tick is the same length. Scientists and cities could now trust minutes, not just rough hours. This leap powered better astronomy, mapping, and daily schedules.",images/dev_2014_image.png,images/dev_2014_thumb.png,horloges de huygens (pendule)
dev_0034b,Anchor Escapement Era,1670,,51.5,-0.12,England,Europe,Household & ritual,pendulum,civic_admin;domestic,domestic,visual;auditory,high,movable,"The anchor escapement made clocks tick more smoothly with a swinging pendulum. It wastes less energy than older verge mechanisms, so clocks ran longer and kept better time. This helped create reliable wall and longcase clocks for homes and towns. Better ticks meant life could be planned to the minute.",images/dev_0034b_image.png,images/dev_0034b_thumb.png,anchor escapement era
dev_2020,Cylinder Escapement,1695,,46.8182,8.2275,England/France/Switzerland (use in pocket watches),Europe,Scientific & observatory,unknown,science_astronomy,civic,visual,low,fixed,"The cylinder escapement is a compact, quiet way to make a watch tick. A thin cylinder lets the escape wheel teeth pass gently, controlling the balance. It helped slim down pocket watches in the 1700s and 1800s. It wasn’t perfect, but it made watches smaller and smoother.",images/dev_2020_image.png,images/dev_2020_thumb.png,l'échappement à cylindre
dev_0014,Marine Chronometer (H4),1761,,51.5072,-0.1276,"London, England",Europe,Navigation & maritime,spring_balance,navigation,personal,visual;tactile,high,portable,"Harrison’s H4 was a super‑accurate sea watch that helped sailors find longitude. By carrying the exact time from home port, crews could compare it to local noon and know where they were. Its steady balance and temperature tricks kept it precise on rough voyages. It turned ocean navigation from guesswork into math.",images/dev_0014_image.png,images/dev_0014_thumb.png,marine chronometer (h4)
dev_2028,John Harrison’s H4 Marine Chronometer,1761,,52.3555,-1.1743,"England, UK",Europe,Navigation & maritime,spring_balance,navigation,personal,visual,high,portable,"Harrison’s H4 was a super‑accurate sea watch that helped sailors find longitude. By carrying the exact time from home port, crews could compare it to local noon and know where they were. Its steady balance and temperature tricks kept it precise on rough voyages. It turned ocean navigation from guesswork into math.",images/dev_2028_image.png,images/dev_2028_thumb.png,le chronomètre h-4 de john harrison
dev_0031,Tourbillon (Breguet),1801,,48.8566,2.3522,"Paris, France",Europe,Personal & wearable,tourbillon,science_astronomy;personal_time,personal,visual;tactile,high,portable,"Breguet’s tourbillon is a tiny spinning cage for a watch’s balance wheel. By slowly turning, it evens out gravity’s pull in different positions. Elite watchmakers used it to squeeze more accuracy from pocket watches. It’s a clever fix for a very small but important problem.",images/dev_0031_image.png,images/dev_0031_thumb.png,tourbillon (breguet)
dev_2019,Swiss Lever Escapement,1850,,46.8182,8.2275,Switzerland,Europe,Scientific & observatory,unknown,science_astronomy,civic,visual,low,fixed,"The Swiss lever escapement is the heart of most modern mechanical watches. A fork and balance wheel lock and unlock the gear teeth with each swing. It’s robust, accurate, and easy to service, so watchmakers everywhere adopted it. If your watch ticks, this is likely the reason why.",images/dev_2019_image.png,images/dev_2019_thumb.png,l'échappement suisse
dev_2021,Man-nen Jimeisho (Variable Hours),1851,,35.01167,135.76833,"Kyoto, Japan",East Asia,Personal & wearable,weight_foliot,personal_time,domestic,visual,medium,movable,"The Man‑nen Jimeisho is a Japanese clock for “unequal hours,” where day and night were split into six parts that change with the seasons. It used clever gearing to speed up or slow down the hands through the year. Homes and scholars used it to match traditional timekeeping. It shows how clocks can follow culture, not just the Sun.",images/dev_2021_image.png,images/dev_2021_thumb.png,man-nen jimeisho (heures variables)
dev_0039,Early Wristwatch (Trench Watch),1914,,50.0,8.0,Europe,Europe,Personal & wearable,spring_balance,personal_time;labor_industry,personal,visual;tactile,high,wearable,Early wristwatches started as practical tools for soldiers in World War I. Straps were added to pocket watches so hands were free and time was easy to check. Soon everyone wanted them for everyday life. They turned personal timekeeping into a quick glance at the wrist.,images/dev_0039_image.png,images/dev_0039_thumb.png,early wristwatch (trench watch)
dev_2013,Quartz Clock,1927,,39.8283,-98.5795,USA,North America,Industrial & lab,quartz_oscillator,science_astronomy;civic_admin,civic,visual,high,fixed,"A quartz clock uses a crystal that vibrates very fast when electricity runs through it. Counting those tiny vibrations gives an even, steady tick. Labs and industry used early quartz clocks as new standards of time. They were far more accurate than old mechanical clocks.",images/dev_2013_image.png,images/dev_2013_thumb.png,horloge à quartz
dev_2006,Atomic Clock,1949,,52.3555,-1.1743,UK (NPL),Europe,Networked infrastructure,atomic,scientific_standard,civic,visual,ultra,fixed,"An atomic clock keeps time using the natural “heartbeat” of atoms. Microwaves tune to an atom’s exact frequency, and electronics lock to that signal. Scientists use atomic clocks to define seconds and run world time (UTC). They’re the backbone for GPS, the internet, and power grids.",images/dev_2006_image.png,images/dev_2006_thumb.png,horloge atomique
dev_0035,Cesium Atomic Clock (NBS/NIST),1954,,40.015,-105.271,"Boulder, USA",North America,Networked infrastructure,atomic,science_astronomy;civic_admin,civic,visual,ultra,fixed,"A cesium atomic clock listens to the special frequency of cesium atoms. When the signal is just right, the atoms flip in a predictable way, and the clock locks on. National labs used them to set the official second and keep global time. They make GPS and telecom networks stay in step.",images/dev_0035_image.png,images/dev_0035_thumb.png,cesium atomic clock (nbs/nist)
dev_2002,Bulova Accutron (tuning-fork watch),1960,,39.8283,-98.5795,USA,North America,Personal & wearable,tuning_fork,personal_time;labor_industry,personal,visual,high,wearable,The Bulova Accutron uses a tiny vibrating tuning fork instead of a ticking balance. An electronic circuit keeps the fork humming at a steady pitch to drive the hands. People loved its smooth sweep and high accuracy in the 1960s. It was a big step toward modern electronic watches.,images/dev_2002_image.png,images/dev_2002_thumb.png,bulova accutron (montre à diapason)
dev_0034,Quartz Wristwatch (Seiko Astron),1969,,35.6762,139.6503,"Tokyo, Japan",East Asia,Personal & wearable,quartz_oscillator,personal_time;labor_industry,personal,visual;tactile,ultra,wearable,The Seiko Astron was the first quartz wristwatch sold to the public. Its crystal kept time so well that it beat most mechanical watches easily. Everyday people could now wear super‑accurate time on their wrists. It started the quartz revolution in watches.,images/dev_0034_image.png,images/dev_0034_thumb.png,quartz wristwatch (seiko astron)
dev_0042,Modern Smartwatch,2013,,37.3349,-122.009,"Cupertino, USA",North America,Personal & wearable,digital,personal_time;labor_industry,personal,visual;tactile,ultra,wearable,"A smartwatch is a tiny computer on your wrist. It tells time, tracks your steps and heart rate, and talks to your phone. Kids and adults use it for messages, fitness, and alarms. It gets its time from the internet, so it stays perfectly in sync.",images/dev_0042_image.png,images/dev_0042_thumb.png,modern smartwatch
person_su_song,Su Song,1020,1101.0,34.797,114.307,"Kaifeng, China",East Asia,Public & civic,,time_reckoning;astronomy,monumental,,,,Song-dynasty polymath who led construction of the water-driven astronomical clock tower (1092) in Kaifeng.,images/people/su_song_image.jpg,images/people/su_song_thumb.jpg,su song
person_galileo,Galileo Galilei,1564,1642.0,43.7696,11.2558,"Florence, Italy",Europe,Scientific & observatory,,pendulum;observation,bench_scale,,,,Astronomer and instrument maker; studied pendulum isochronism and advanced precision timekeeping.,images/people/galileo_image.jpg,images/people/galileo_thumb.jpg,galileo galilei
person_gemma_frisius,Gemma Frisius,1508,1555.0,50.879,4.701,"Leuven, Belgium",Europe,Scientific & observatory,,navigation;longitude,portable,,,,Proposed precise clocks for finding longitude and advanced triangulation techniques.,images/people/gemma_frisius_image.jpg,images/people/gemma_frisius_thumb.jpg,gemma frisius
person_huygens,Christiaan Huygens,1629,1695.0,52.07,4.3,"The Hague, Netherlands",Europe,Scientific & observatory,,pendulum;balance_spring,bench_scale,,,,Invented the pendulum clock (1656) and developed the balance spring for watches.,images/people/huygens_image.jpg,images/people/huygens_thumb.jpg,christiaan huygens
person_harrison,John Harrison,1693,1776.0,51.5074,-0.1278,"London, England",Europe,Navigation & maritime,,marine_chronometer;longitude,portable,,,,Created marine chronometers solving the longitude problem; H1–H4 innovations.,images/people/harrison_image.jpg,images/people/harrison_thumb.jpg,john harrison
person_george_graham,George Graham,1673,1751.0,51.5074,-0.1278,"London, England",Europe,Scientific & observatory,,deadbeat_escapement;compensation_pendulum,bench_scale,,,,Master clockmaker; deadbeat escapement and mercurial compensation pendulum for precision clocks.,images/people/george_graham_image.jpg,images/people/george_graham_thumb.jpg,george graham
person_tompion,Thomas Tompion,1639,1713.0,51.5074,-0.1278,"London, England",Europe,Public & civic,,standardization;workshop_practices,bench_scale,,,,‘Father of English clockmaking’; standardized parts and high-precision workshop methods.,images/people/tompion_image.jpg,images/people/tompion_thumb.jpg,thomas tompion
person_pierre_le_roy,Pierre Le Roy,1717,1785.0,48.8566,2.3522,"Paris, France",Europe,Navigation & maritime,,detent_escapement;temperature_compensation,portable,,,,French horologist; detent escapement and temperature-compensated balances for marine timekeepers.,images/people/pierre_le_roy_image.jpg,images/people/pierre_le_roy_thumb.jpg,pierre le roy
person_guillaume,Charles Édouard Guillaume,1861,1938.0,48.822,2.229,"Sèvres, France",Europe,Industrial & lab,,invar;elinvar;materials,bench_scale,,,,"Developed Invar and Elinvar alloys, stabilizing precision timekeeping (Nobel Prize, 1920).",images/people/guillaume_image.jpg,images/people/guillaume_thumb.jpg,charles édouard guillaume
person_einstein,Albert Einstein,1879,1955.0,46.948,7.447,"Bern, Switzerland",Europe,Scientific & observatory,,relativity;physics,conceptual,,,,Formulated special (1905) and general (1915) relativity; reshaped modern conceptions of time.,images/people/einstein_image.jpg,images/people/einstein_thumb.jpg,albert einstein
story_tower_of_winds,The Tower of the Winds,-50,-50.0,37.9838,23.7275,"Athens, Greece",Europe,Public & civic,,sundial;water_clock;wind_vane,architectural,,,,"Octagonal Hellenistic/Roman-era clocktower combining sundials, a water clock, and a wind vane.",images/stories/tower_of_winds_image.jpg,images/stories/tower_of_winds_thumb.jpg,the tower of the winds
story_su_songs_tower,Su Song’s Astronomical Clock Tower,1092,1127.0,34.797,114.307,"Kaifeng, China",East Asia,Public & civic,,astronomical_clock;escapement;chain_drive,monumental,,,,Water-driven astronomical clock tower with early escapement and chain drive; destroyed in 1127.,images/stories/su_songs_tower_image.jpg,images/stories/su_songs_tower_thumb.jpg,su song’s astronomical clock tower
story_longitude_problem,Harrison’s Longitude Problem,1714,1773.0,51.5074,-0.1278,"London, England",Europe,Navigation & maritime,,longitude_act;marine_chronometer,portable,,,,From the 1714 Longitude Act to recognition of Harrison’s chronometers solving longitude at sea.,images/stories/longitude_problem_image.jpg,images/stories/longitude_problem_thumb.jpg,harrison’s longitude problem
story_greenwich_observatory,Greenwich Observatory,1675,1884.0,51.4769,-0.0005,"Greenwich, London",Europe,Scientific & observatory,,observatory;prime_meridian,architectural,,,,Royal Observatory founded 1675; site of the Prime Meridian adopted internationally in 1884.,images/stories/greenwich_observatory_image.jpg,images/stories/greenwich_observatory_thumb.jpg,greenwich observatory
story_meridian_conference,International Meridian Conference,1884,1884.0,38.9072,-77.0369,"Washington, D.C., USA",North America,Public & civic,,standard_time;time_zones;prime_meridian,institutional,,,,International conference where nations agreed on Greenwich as zero meridian and time zones.,images/stories/meridian_conference_image.jpg,images/stories/meridian_conference_thumb.jpg,international meridian conference
story_french_rev_calendar,French Revolutionary Calendar,1793,1805.0,48.8566,2.3522,"Paris, France",Europe,Public & civic,,decimal_time;calendar_reform,institutional,,,,Revolutionary France introduced decimal time and a reformed calendar (Year I–XIV).,images/stories/french_rev_calendar_image.jpg,images/stories/french_rev_calendar_thumb.jpg,french revolutionary calendar
story_relativity,Einstein’s Theory of Relativity,1905,1915.0,46.948,7.447,"Bern, Switzerland",Europe,Scientific & observatory,,special_relativity;general_relativity,conceptual,,,,"From special relativity (1905, Bern) to general relativity (1915); time becomes relative.",images/stories/relativity_image.jpg,images/stories/relativity_thumb.jpg,einstein’s theory of relativity
story_atomic_clock,The Atomic Clock,1949,1967.0,38.9072,-77.0369,"Washington, D.C., USA",North America,Industrial & lab,,cesium_clock;SI_second,bench_scale,,,,"First atomic clock (1949, NIST) to 1967 definition of the SI second from Cs‑133.",images/stories/atomic_clock_image.jpg,images/stories/atomic_clock_thumb.jpg,the atomic clock
person_al_jazari,Al‑Jazarī,1136,1206.0,37.914,40.23,"Diyarbakır, Turkey",Middle East,Public & civic,,,,,,,Engineer of automata and water/candle clocks; author of an illustrated treatise on ingenious mechanical devices.,images/people/al_jazari_image.jpg,images/people/al_jazari_thumb.jpg,al‑jazarī
person_giovanni_de_dondi,Giovanni Dondi dell’Orologio,1330,1388.0,45.406,11.877,"Padua, Italy",Europe,Scientific & observatory,,,,,,,"Built the Astrarium (1360s), a multi‑dial astronomical clock modeling the known cosmos.",images/people/giovanni_de_dondi_image.jpg,images/people/giovanni_de_dondi_thumb.jpg,giovanni dondi dell’orologio
person_peter_henlein,Peter Henlein,1485,1542.0,49.454,11.077,"Nuremberg, Germany",Europe,Personal & wearable,,,,,,,"Often credited with early portable watches (‘Nuremberg eggs’), enabling time on the move.",images/people/peter_henlein_image.jpg,images/people/peter_henlein_thumb.jpg,peter henlein
person_galileo_galilei,Galileo Galilei,1564,1642.0,43.7696,11.2558,"Florence, Italy",Europe,Scientific & observatory,,,,,,,Studied pendulum isochronism and proposed astronomical methods for longitude; influenced precision horology.,images/people/galileo_galilei_image.jpg,images/people/galileo_galilei_thumb.jpg,galileo galilei
person_jost_burgi,Jost Bürgi,1552,1632.0,51.312,9.479,"Kassel, Germany",Europe,Scientific & observatory,,,,,,,Instrument maker and clockmaker; advanced precision regulators and astronomical instruments.,images/people/jost_burgi_image.jpg,images/people/jost_burgi_thumb.jpg,jost bürgi
person_christiaan_huygens,Christiaan Huygens,1629,1695.0,52.07,4.3,"The Hague, Netherlands",Europe,Scientific & observatory,,,,,,,"Invented the pendulum clock (1656) and balance spring (1675), foundational to precision timekeeping.",images/people/christiaan_huygens_image.jpg,images/people/christiaan_huygens_thumb.jpg,christiaan huygens
person_isaac_thuret,Isaac Thuret,1630,1706.0,48.8566,2.3522,"Paris, France",Europe,Scientific & observatory,,,,,,,Academy clockmaker who realized Huygens’s balance‑spring watches and expedition clocks.,images/people/isaac_thuret_image.jpg,images/people/isaac_thuret_thumb.jpg,isaac thuret
person_thomas_tompion,Thomas Tompion,1639,1713.0,51.5074,-0.1278,"London, England",Europe,Public & civic,,,,,,,Standardized high‑quality workshop practices; master of precision clocks and watches.,images/people/thomas_tompion_image.jpg,images/people/thomas_tompion_thumb.jpg,thomas tompion
person_daniel_quare,Daniel Quare,1648,1724.0,51.5074,-0.1278,"London, England",Europe,Public & civic,,,,,,,Innovated repeating watches and pushed coaxial hour/minute hands; early portable complications.,images/people/daniel_quare_image.jpg,images/people/daniel_quare_thumb.jpg,daniel quare
person_john_harrison,John Harrison,1693,1776.0,51.5074,-0.1278,"London, England",Europe,Navigation & maritime,,,,,,,Created marine chronometers H1–H5 that cracked the longitude problem for safe navigation.,images/people/john_harrison_image.jpg,images/people/john_harrison_thumb.jpg,john harrison
person_jean_jacques_rousseau,Jean‑Jacques Rousseau,1712,1778.0,46.204,6.143,"Geneva, Switzerland",Europe,Public & civic,,,,,,,Geneva‑born philosopher with watchmaking training; linked timekeeping to modern social life in his writings.,images/people/jean_jacques_rousseau_image.jpg,images/people/jean_jacques_rousseau_thumb.jpg,jean‑jacques rousseau
person_justin_vulliamy,Justin Vulliamy,1712,1797.0,51.5074,-0.1278,"London, England",Europe,Public & civic,,,,,,,Swiss‑born London horologist; family firm supplied elite regulators and precision clocks.,images/people/justin_vulliamy_image.jpg,images/people/justin_vulliamy_thumb.jpg,justin vulliamy
person_jean_romilly,Jean Romilly,1714,1796.0,48.8566,2.3522,"Paris, France",Europe,Personal & wearable,,,,,,,Genevan watchmaker in Paris; 8‑day watches and calendar innovations; contributor to the Encyclopédie.,images/people/jean_romilly_image.jpg,images/people/jean_romilly_thumb.jpg,jean romilly
person_thomas_mudge,Thomas Mudge,1717,1794.0,51.5074,-0.1278,"London, England",Europe,Personal & wearable,,,,,,,Invented the detached lever escapement; advanced minute repeaters and precision portable timekeepers.,images/people/thomas_mudge_image.jpg,images/people/thomas_mudge_thumb.jpg,thomas mudge
person_jean_antoine_lepine,Jean‑Antoine Lépine,1720,1814.0,48.8566,2.3522,"Paris, France",Europe,Personal & wearable,,,,,,,"Created the thin Lépine calibre (bridge layout, no fusee), shaping the modern pocket‑watch architecture.",images/people/jean_antoine_lepine_image.jpg,images/people/jean_antoine_lepine_thumb.jpg,jean‑antoine lépine
person_josiah_emery,Josiah Emery,1725,1797.0,51.5074,-0.1278,"London, England",Europe,Personal & wearable,,,,,,,Early lever‑escapement chronometers with high finishing; Swiss expatriate advancing English chronometry.,images/people/josiah_emery_image.jpg,images/people/josiah_emery_thumb.jpg,josiah emery
person_ferdinand_berthoud,Ferdinand Berthoud,1727,1807.0,48.8566,2.3522,"Paris, France",Europe,Navigation & maritime,,,,,,,Pioneer of French marine timekeepers; prolific author integrating science and craftsmanship.,images/people/ferdinand_berthoud_image.jpg,images/people/ferdinand_berthoud_thumb.jpg,ferdinand berthoud
person_john_arnold,John Arnold,1736,1799.0,51.5074,-0.1278,"London, England",Europe,Navigation & maritime,,,,,,,Industrialized marine chronometers (Royal Navy); bimetallic balance and helical springs; rival of Earnshaw.,images/people/john_arnold_image.jpg,images/people/john_arnold_thumb.jpg,john arnold
person_abraham_louis_breguet,Abraham‑Louis Breguet,1747,1823.0,48.8566,2.3522,"Paris, France",Europe,Personal & wearable,,,,,,,"Invented/advanced tourbillon, subscription watches, gong springs; iconic Breguet design language.",images/people/abraham_louis_breguet_image.jpg,images/people/abraham_louis_breguet_thumb.jpg,abraham‑louis breguet
person_henri_louis_jaquet_droz,Henri‑Louis Jaquet‑Droz,1752,1791.0,46.989,6.929,"La Chaux‑de‑Fonds, Switzerland",Europe,Public & civic,,,,,,,"Automata maker (Writer, Musician, Draughtsman) and luxury export pioneer; art‑mechanics synthesis.",images/people/henri_louis_jaquet_droz_image.jpg,images/people/henri_louis_jaquet_droz_thumb.jpg,henri‑louis jaquet‑droz
person_louis_benjamin_audemars,Louis‑Benjamin Audemars,1782,1833.0,46.607,6.331,"Le Brassus, Switzerland",Europe,Industrial & lab,,,,,,,Founded an early integrated Vallée de Joux workshop; groundwork for Audemars family excellence.,images/people/louis_benjamin_audemars_image.jpg,images/people/louis_benjamin_audemars_thumb.jpg,louis‑benjamin audemars
person_pierre_frederic_ingold,Pierre‑Frédéric Ingold,1787,1878.0,47.099,6.825,"La Chaux‑de‑Fonds, Switzerland",Europe,Industrial & lab,,,,,,,Advocated mechanization of watchmaking in Europe/UK/US; anticipated mass‑production methods.,images/people/pierre_frederic_ingold_image.jpg,images/people/pierre_frederic_ingold_thumb.jpg,pierre‑frédéric ingold
person_honore_de_balzac,Honoré de Balzac,1799,1850.0,48.8566,2.3522,"Paris, France",Europe,Public & civic,,,,,,,Canonized the Breguet watch as a modern status symbol within 19th‑century literature.,images/people/honore_de_balzac_image.jpg,images/people/honore_de_balzac_thumb.jpg,honoré de balzac
person_hisashige_tanaka,Hisashige Tanaka,1799,1881.0,33.296,130.515,"Kurume, Japan",East Asia,Public & civic,,,,,,,Karakuri automata master; built the Myriad Year Clock (1851); later co‑founded the firm that became Toshiba.,images/people/hisashige_tanaka_image.jpg,images/people/hisashige_tanaka_thumb.jpg,hisashige tanaka
person_jules_jurgensen,Jules Jürgensen,1808,1877.0,47.056,6.75,"Le Locle, Switzerland",Europe,Personal & wearable,,,,,,,Innovative escapements and finishing; helped set high standards across the Jura arc.,images/people/jules_jurgensen_image.jpg,images/people/jules_jurgensen_thumb.jpg,jules jürgensen
person_adrien_philippe,Adrien Philippe,1815,1894.0,46.204,6.143,"Geneva, Switzerland",Europe,Personal & wearable,,,,,,,Popularized crown winding (keyless works); co‑founded Patek Philippe; standardized calibres in Geneva.,images/people/adrien_philippe_image.jpg,images/people/adrien_philippe_thumb.jpg,adrien philippe
person_henri_robert_ekegren,Henri‑Robert Ekegren,1823,1896.0,46.204,6.143,"Geneva, Switzerland",Europe,Personal & wearable,,,,,,,Prize‑winning chronometers and chronographs; finishing and lubrication innovations.,images/people/henri_robert_ekegren_image.jpg,images/people/henri_robert_ekegren_thumb.jpg,henri‑robert ekegren
person_edouard_koehn,Édouard Koehn,1839,1908.0,46.204,6.143,"Geneva, Switzerland",Europe,Industrial & lab,,,,,,,Director/shareholder at Patek Philippe; later founded his own firm; patented retrograde chronograph display.,images/people/edouard_koehn_image.jpg,images/people/edouard_koehn_thumb.jpg,édouard koehn
person_paul_ditisheim,Paul Ditisheim,1868,1945.0,46.989,6.929,"La Chaux‑de‑Fonds, Switzerland",Europe,Industrial & lab,,,,,,,Set observatory chronometry records; researched magnetism/temperature effects with C.-É. Guillaume.,images/people/paul_ditisheim_image.jpg,images/people/paul_ditisheim_thumb.jpg,paul ditisheim
person_antoine_lecoultre,Antoine LeCoultre,1803,1881.0,46.616,6.232,"Le Sentier, Switzerland",Europe,Industrial & lab,,,,,,,Founded LeCoultre; micrometer and keyless winding innovations; base for Jaeger‑LeCoultre.,images/people/antoine_lecoultre_image.jpg,images/people/antoine_lecoultre_thumb.jpg,antoine lecoultre
person_ulysse_nardin,Ulysse Nardin,1823,1876.0,47.056,6.75,"Le Locle, Switzerland",Europe,Navigation & maritime,,,,,,,Marine chronometers and deck watches; established a Le Locle chronometry signature.,images/people/ulysse_nardin_image.jpg,images/people/ulysse_nardin_thumb.jpg,ulysse nardin
person_charles_edouard_guillaume,Charles Édouard Guillaume,1861,1938.0,48.822,2.229,"Sèvres, France",Europe,Industrial & lab,,,,,,,"Developed Invar and Elinvar alloys, stabilizing oscillators; Nobel Prize in Physics 1920.",images/people/charles_edouard_guillaume_image.jpg,images/people/charles_edouard_guillaume_thumb.jpg,charles édouard guillaume
person_albert_einstein,Albert Einstein,1879,1955.0,46.948,7.447,"Bern, Switzerland",Europe,Scientific & observatory,,,,,,,Special (1905) and general relativity (1915) reframed time and synchronization in physics and technology.,images/people/albert_einstein_image.jpg,images/people/albert_einstein_thumb.jpg,albert einstein
person_jules_louis_audemars,Jules Louis Audemars,1851,1918.0,46.607,6.331,"Le Brassus, Switzerland",Europe,Industrial & lab,,,,,,,Co‑founded Audemars Piguet; advanced thin complications and high‑grade finishing.,images/people/jules_louis_audemars_image.jpg,images/people/jules_louis_audemars_thumb.jpg,jules louis audemars
person_edward_auguste_piguet,Edward Auguste Piguet,1853,1919.0,46.607,6.331,"Le Brassus, Switzerland",Europe,Industrial & lab,,,,,,,Co‑founded Audemars Piguet; pioneered high‑complication series production.,images/people/edward_auguste_piguet_image.jpg,images/people/edward_auguste_piguet_thumb.jpg,edward auguste piguet
person_jean_frederic_leschot,Jean‑Frédéric Leschot,1746,1824.0,46.204,6.143,"Geneva, Switzerland",Europe,Industrial & lab,,,,,,,Collaborated with Jaquet‑Droz on automata and export networks; standardized components.,images/people/jean_frederic_leschot_image.jpg,images/people/jean_frederic_leschot_thumb.jpg,jean‑frédéric leschot
person_georges_auguste_leschot,Georges‑Auguste Leschot,1802,1884.0,46.204,6.143,"Geneva, Switzerland",Europe,Industrial & lab,,,,,,,Industrialized interchangeable parts in watchmaking; the Leschot pantograph tool.,images/people/georges_auguste_leschot_image.jpg,images/people/georges_auguste_leschot_thumb.jpg,georges‑auguste leschot
